{"features":[{"geometry":{"coordinates":[-123.134765625,47.338822694822],"type":"Point"},"properties":{"description":"Edge Location","id":"marker-hs0jbuyp1","marker-color":"#F36F21","marker-size":"medium","marker-symbol":"circle","title":"Seattle - MaxCDN"},"type":"Feature"},{"geometry":{"coordinates":[-87.62695312499999,41.902277040963696],"type":"Point"},"properties":{"description":"Edge Location","id":"marker-hs0jd9wm2","marker-color":"#F36F21","marker-size":"medium","marker-symbol":"circle","title":"Chicago - MaxCDN"},"type":"Feature"},{"geometry":{"coordinates":[-122.431640625,37.78808138412046],"type":"Point"},"properties":{"description":"Edge Location","id":"marker-hs0jdp5s3","marker-color":"#F36F21","marker-size":"medium","marker-symbol":"circle","title":"San Francisco - MaxCDN"},"type":"Feature"},{"geometry":{"coordinates":[-118.2568359375,34.05265942137599],"type":"Point"},"properties":{"description":"Edge Location","id":"marker-hs0jehtn4","marker-color":"#F36F21","marker-size":"medium","marker-symbol":"circle","title":"Los Angeles - MaxCDN"},"type":"Feature"},{"geometry":{"coordinates":[-96.85546875,32.76880048488168],"type":"Point"},"properties":{"description":"Edge Location","id":"marker-hs0jexnp5","marker-color":"#F36F21","marker-size":"medium","marker-symbol":"circle","title":"Dallas - MaxCDN"},"type":"Feature"},{"geometry":{"coordinates":[-80.15625,25.799891182088334],"type":"Point"},"properties":{"description":"Edge Location","id":"marker-hs0jfej56","marker-color":"#F36F21","marker-size":"medium","marker-symbol":"circle","title":"Miami - MaxCDN"},"type":"Feature"},{"geometry":{"coordinates":[-84.375,33.797408767572485],"type":"Point"},"properties":{"description":"Edge Location","id":"marker-hs0jfs9v7","marker-color":"#F36F21","marker-size":"medium","marker-symbol":"circle","title":"Atlanta - MaxCDN"},"type":"Feature"},{"geometry":{"coordinates":[-77.431640625,37.579412513438385],"type":"Point"},"properties":{"description":"Edge Location","id":"marker-hs0jg6a28","marker-color":"#F36F21","marker-size":"medium","marker-symbol":"circle","title":"Virginia - MaxCDN"},"type":"Feature"},{"geometry":{"coordinates":[-73.98193359375,40.74725696280421],"type":"Point"},"properties":{"description":"Edge Location","id":"marker-hs0jgi229","marker-color":"#F36F21","marker-size":"medium","marker-symbol":"circle","title":"New York - MaxCDN"},"type":"Feature"},{"geometry":{"coordinates":[-0.1318359375,51.508742458803326],"type":"Point"},"properties":{"description":"Edge Location","id":"marker-hs0jh8lha","marker-color":"#F36F21","marker-size":"medium","marker-symbol":"circle","title":"London - MaxCDN"},"type":"Feature"},{"geometry":{"coordinates":[4.89990234375,52.3688917060255],"type":"Point"},"properties":{"description":"Edge Location","id":"marker-hs0jhou4b","marker-color":"#F36F21","marker-size":"medium","marker-symbol":"circle","title":"Amsterdam - MaxCDN"},"type":"Feature"},{"geometry":{"coordinates":[8.975830078125,50.162824333817284],"type":"Point"},"properties":{"description":"Edge Location","id":"marker-hs0ji6hyc","marker-color":"#F36F21","marker-size":"medium","marker-symbol":"circle","title":"Frankfurt - MaxCDN"},"type":"Feature"},{"geometry":{"coordinates":[-122.31628417968749,47.60338525714934],"type":"Point"},"properties":{"description":"Edge Location","id":"marker-hs0jjmszd","marker-color":"#FFE900","marker-size":"medium","marker-symbol":"circle","title":"Seatle - CloudFlare"},"type":"Feature"},{"geometry":{"coordinates":[-121.88095092773439,37.345050859282736],"type":"Point"},"properties":{"description":"Edge Location","id":"marker-hs0jqfbje","marker-color":"#FFE900","marker-size":"medium","marker-symbol":"circle","title":"San Jose - CloudFlare"},"type":"Feature"},{"geometry":{"coordinates":[-117.960205078125,33.97980872872457],"type":"Point"},"properties":{"description":"Edge Location","id":"marker-hs0jqxdlf","marker-color":"#FFE900","marker-size":"medium","marker-symbol":"circle","title":"Los Angeles - CloudFlare"},"type":"Feature"},{"geometry":{"coordinates":[-96.1962890625,32.76880048488168],"type":"Point"},"properties":{"description":"Edge Location","id":"marker-hs0js5vmg","marker-color":"#FFE900","marker-size":"medium","marker-symbol":"circle","title":"Dallas - CloudFlare"},"type":"Feature"},{"geometry":{"coordinates":[-81.34277343749999,25.60190226111573],"type":"Point"},"properties":{"description":"Edge Location","id":"marker-hs0jsilih","marker-color":"#FFE900","marker-size":"medium","marker-symbol":"circle","title":"Miami - CloudFlare"},"type":"Feature"},{"geometry":{"coordinates":[-84.814453125,33.779147331286474],"type":"Point"},"properties":{"description":"Edge Location","id":"marker-hs0jt02ki","marker-color":"#FFE900","marker-size":"medium","marker-symbol":"circle","title":"Atlanta - CloudFlare"},"type":"Feature"},{"geometry":{"coordinates":[-77.01416015625,38.92522904714054],"type":"Point"},"properties":{"description":"Edge Location","id":"marker-hs0jtblsj","marker-color":"#FFE900","marker-size":"medium","marker-symbol":"circle","title":"Washigton - CloudFlare"},"type":"Feature"},{"geometry":{"coordinates":[-88.13232421875,41.72213058512578],"type":"Point"},"properties":{"description":"Edge Location","id":"marker-hs0ju630k","marker-color":"#FFE900","marker-size":"medium","marker-symbol":"circle","title":"Chicago - CloudFlare"},"type":"Feature"},{"geometry":{"coordinates":[-79.40917968749999,43.6599240747891],"type":"Point"},"properties":{"description":"Edge Location","id":"marker-hs0juhhwl","marker-color":"#FFE900","marker-size":"medium","marker-symbol":"circle","title":"Toronto - CloudFlare"},"type":"Feature"},{"geometry":{"coordinates":[-74.18655395507812,40.73581157695217],"type":"Point"},"properties":{"description":"Edge Location","id":"marker-hs0jvlham","marker-color":"#FFE900","marker-size":"medium","marker-symbol":"circle","title":"Newark - CloudFlare"},"type":"Feature"},{"geometry":{"coordinates":[-71.5924072265625,-33.04550781490999],"type":"Point"},"properties":{"description":"Edge Location","id":"marker-hs0jx3c3n","marker-color":"#FFE900","marker-size":"medium","marker-symbol":"circle","title":"Valpraiso - CloudFlare"},"type":"Feature"},{"geometry":{"coordinates":[-0.85693359375,51.876490970614775],"type":"Point"},"properties":{"description":"Edge Location","id":"marker-hs0jxnkxo","marker-color":"#FFE900","marker-size":"medium","marker-symbol":"circle","title":"London - CloudFlare"},"type":"Feature"},{"geometry":{"coordinates":[4.7021484375,52.37224556866933],"type":"Point"},"properties":{"description":"Edge Location","id":"marker-hs0jxzybp","marker-color":"#FFE900","marker-size":"medium","marker-symbol":"circle","title":"Amsterdam - CloudFlare"},"type":"Feature"},{"geometry":{"coordinates":[8.514404296875,50.0289165635219],"type":"Point"},"properties":{"description":"Edge Location","id":"marker-hs0jykosq","marker-color":"#FFE900","marker-size":"medium","marker-symbol":"circle","title":"Frankfurt - CloudFlare"},"type":"Feature"},{"geometry":{"coordinates":[2.340087890625,48.86471476180277],"type":"Point"},"properties":{"description":"Edge Location","id":"marker-hs0jz1w2r","marker-color":"#FFE900","marker-size":"medium","marker-symbol":"circle","title":"Paris - CloudFlare"},"type":"Feature"},{"geometry":{"coordinates":[16.36962890625,48.21735290928554],"type":"Point"},"properties":{"description":"Edge Location","id":"marker-hs0jzphts","marker-color":"#FFE900","marker-size":"medium","marker-symbol":"circle","title":"Vienna - CloudFlare"},"type":"Feature"},{"geometry":{"coordinates":[14.447021484374998,50.0923932109388],"type":"Point"},"properties":{"description":"Edge Location","id":"marker-hs0k0crbt","marker-color":"#FFE900","marker-size":"medium","marker-symbol":"circle","title":"Prague - CloudFlare"},"type":"Feature"},{"geometry":{"coordinates":[21.005859375,52.25470880113083],"type":"Point"},"properties":{"description":"Edge Location","id":"marker-hs0k0ofsu","marker-color":"#FFE900","marker-size":"medium","marker-symbol":"circle","title":"Warsaw - CloudFlare"},"type":"Feature"},{"geometry":{"coordinates":[18.08349609375,59.34439461630004],"type":"Point"},"properties":{"description":"Edge Location","id":"marker-hs0k111sv","marker-color":"#FFE900","marker-size":"medium","marker-symbol":"circle","title":"Stockholm"},"type":"Feature"},{"geometry":{"coordinates":[103.974609375,1.3182430568620136],"type":"Point"},"properties":{"description":"Edge Location","id":"marker-hs0k1jadw","marker-color":"#FFE900","marker-size":"medium","marker-symbol":"circle","title":"Singapore - CloudFlare"},"type":"Feature"},{"geometry":{"coordinates":[151.171875,-33.760882000869174],"type":"Point"},"properties":{"description":"Edge Location","id":"marker-hs0k1u2vx","marker-color":"#FFE900","marker-size":"medium","marker-symbol":"circle","title":"Sydney - CloudFlare"},"type":"Feature"},{"geometry":{"coordinates":[114.18090820312499,22.28909641872304],"type":"Point"},"properties":{"description":"Edge Location","id":"marker-hs0k4ngzy","marker-color":"#FFE900","marker-size":"medium","marker-symbol":"circle","title":"Hong Kong - CloudFlare"},"type":"Feature"},{"geometry":{"coordinates":[127.0458984375,37.54457732085582],"type":"Point"},"properties":{"description":"Edge Location","id":"marker-hs0k53niz","marker-color":"#FFE900","marker-size":"medium","marker-symbol":"circle","title":"Seoul - CloudFlare"},"type":"Feature"},{"geometry":{"coordinates":[139.74609375,35.71083783530009],"type":"Point"},"properties":{"description":"Edge Location","id":"marker-hs0k5fqo10","marker-color":"#FFE900","marker-size":"medium","marker-symbol":"circle","title":"Takyo - CloudFlare"},"type":"Feature"},{"geometry":{"coordinates":[9.16259765625,45.47554027158593],"type":"Point"},"properties":{"description":"Sponsored POP location by Prometeus.net","id":"marker-hs0k69vi11","marker-color":"#1087bf","marker-size":"medium","marker-symbol":"p","title":"Milan - Prometeus "},"type":"Feature"},{"geometry":{"coordinates":[-9.184570312499998,38.685509760012],"type":"Point"},"properties":{"description":"Sponsored POP location by Leapswitch.com","id":"marker-hs0k71mc12","marker-color":"#548cba","marker-size":"medium","marker-symbol":"l","title":"Lisbon - Leapswitch"},"type":"Feature"},{"geometry":{"coordinates":[30.520019531249996,50.44351305245805],"type":"Point"},"properties":{"description":"Sponsored POP location by Leapswitch.com","id":"marker-hs0k7t2y13","marker-color":"#548cba","marker-size":"medium","marker-symbol":"l","title":"Kiev - Leapswitch"},"type":"Feature"},{"geometry":{"coordinates":[102.919921875,1.9332268264771233],"type":"Point"},"properties":{"description":"Sponsored POP location by SecureAX.com","id":"marker-hs0k8ltl14","marker-color":"#ede8e4","marker-size":"medium","marker-symbol":"s","title":"Singapore - SecureAX"},"type":"Feature"},{"geometry":{"coordinates":[106.875,-6.0968598188879355],"type":"Point"},"properties":{"description":"Sponsored POP location by jetdino.com","id":"marker-hs0k9mti15","marker-color":"#ede8e4","marker-size":"medium","marker-symbol":"s","title":"Jakarta - JetDino"},"type":"Feature"}],"id":"jimaek.map-6gmedxyr","type":"FeatureCollection"}