{"features":[{"geometry":{"coordinates":[-123.134765,47.338822],"type":"Point"},"id":"ci25nrszz2e8ebfrwnla5cmtn","properties":{"description":"Edge Location","id":"marker-hs0jbuyp1","marker-color":"#F36F21","marker-size":"medium","marker-symbol":"circle","title":"Seattle - MaxCDN"},"type":"Feature"},{"geometry":{"coordinates":[-87.637939,41.804078],"type":"Point"},"id":"ci25nrt002e8fbfrwhjh69wpe","properties":{"description":"Edge Location","id":"marker-hs0jd9wm2","marker-color":"#F36F21","marker-size":"medium","marker-symbol":"circle","title":"Chicago - MaxCDN"},"type":"Feature"},{"geometry":{"coordinates":[-122.43164,37.788081],"type":"Point"},"id":"ci25nrt012e8gbfrwolekiqqr","properties":{"description":"Edge Location","id":"marker-hs0jdp5s3","marker-color":"#F36F21","marker-size":"medium","marker-symbol":"circle","title":"San Francisco - MaxCDN"},"type":"Feature"},{"geometry":{"coordinates":[-118.157958,33.724339],"type":"Point"},"id":"ci25nrt022e8hbfrwo7g8y5bh","properties":{"description":"Edge Location","id":"marker-hs0jehtn4","marker-color":"#F36F21","marker-size":"medium","marker-symbol":"circle","title":"Los Angeles - MaxCDN"},"type":"Feature"},{"geometry":{"coordinates":[-96.855468,32.7688],"type":"Point"},"id":"ci25nrt042e8ibfrwh5t94fiz","properties":{"description":"Edge Location","id":"marker-hs0jexnp5","marker-color":"#F36F21","marker-size":"medium","marker-symbol":"circle","title":"Dallas - MaxCDN"},"type":"Feature"},{"geometry":{"coordinates":[-80.15625,25.799891],"type":"Point"},"id":"ci25nrt052e8jbfrw9k4oj0wv","properties":{"description":"Edge Location","id":"marker-hs0jfej56","marker-color":"#F36F21","marker-size":"medium","marker-symbol":"circle","title":"Miami - MaxCDN"},"type":"Feature"},{"geometry":{"coordinates":[-84.375,33.797408],"type":"Point"},"id":"ci25nrt072e8kbfrwaffm93so","properties":{"description":"Edge Location","id":"marker-hs0jfs9v7","marker-color":"#F36F21","marker-size":"medium","marker-symbol":"circle","title":"Atlanta - MaxCDN"},"type":"Feature"},{"geometry":{"coordinates":[-77.43164,37.579412],"type":"Point"},"id":"ci25nrt082e8lbfrwx1mbmcnl","properties":{"description":"Edge Location","id":"marker-hs0jg6a28","marker-color":"#F36F21","marker-size":"medium","marker-symbol":"circle","title":"Virginia - MaxCDN"},"type":"Feature"},{"geometry":{"coordinates":[-73.95996,40.676472],"type":"Point"},"id":"ci25nrt0a2e8mbfrwze8y3809","properties":{"description":"Edge Location","id":"marker-hs0jgi229","marker-color":"#F36F21","marker-size":"medium","marker-symbol":"circle","title":"New York - MaxCDN"},"type":"Feature"},{"geometry":{"coordinates":[-0.131835,51.508742],"type":"Point"},"id":"ci25nrt0b2e8nbfrwn8wn2ktj","properties":{"description":"Edge Location","id":"marker-hs0jh8lha","marker-color":"#F36F21","marker-size":"medium","marker-symbol":"circle","title":"London - MaxCDN"},"type":"Feature"},{"geometry":{"coordinates":[4.921875,52.308478],"type":"Point"},"id":"ci25nrt0c2e8obfrwv3o7kuxt","properties":{"description":"Edge Location","id":"marker-hs0jhou4b","marker-color":"#F36F21","marker-size":"medium","marker-symbol":"circle","title":"Amsterdam - MaxCDN"},"type":"Feature"},{"geometry":{"coordinates":[8.986816,49.951219],"type":"Point"},"id":"ci25nrt0d2e8pbfrwdo02k76u","properties":{"description":"Edge Location","id":"marker-hs0ji6hyc","marker-color":"#F36F21","marker-size":"medium","marker-symbol":"circle","title":"Frankfurt - MaxCDN"},"type":"Feature"},{"geometry":{"coordinates":[-122.316284,47.603385],"type":"Point"},"id":"ci25nrt0e2e8qbfrww0gal5m4","properties":{"description":"Edge Location","id":"marker-hs0jjmszd","marker-color":"#FFE900","marker-size":"medium","marker-symbol":"circle","title":"Seatle - CloudFlare"},"type":"Feature"},{"geometry":{"coordinates":[-122.091064,38.004819],"type":"Point"},"id":"ci25nrt0f2e8rbfrw4559ue4w","properties":{"description":"Edge Location","id":"marker-hs0jqfbje","marker-color":"#FFE900","marker-size":"medium","marker-symbol":"circle","title":"San Jose - CloudFlare"},"type":"Feature"},{"geometry":{"coordinates":[-117.960205,33.979808],"type":"Point"},"id":"ci25nrt0h2e8sbfrwp6tkkqak","properties":{"description":"Edge Location","id":"marker-hs0jqxdlf","marker-color":"#FFE900","marker-size":"medium","marker-symbol":"circle","title":"Los Angeles - CloudFlare"},"type":"Feature"},{"geometry":{"coordinates":[-96.591796,32.907262],"type":"Point"},"id":"ci25nrt0i2e8tbfrwz1zljyx7","properties":{"description":"Edge Location","id":"marker-hs0js5vmg","marker-color":"#FFE900","marker-size":"medium","marker-symbol":"circle","title":"Dallas - CloudFlare"},"type":"Feature"},{"geometry":{"coordinates":[-80.90332,26.086388],"type":"Point"},"id":"ci25nrt0j2e8ubfrwfq4e10pm","properties":{"description":"Edge Location","id":"marker-hs0jsilih","marker-color":"#FFE900","marker-size":"medium","marker-symbol":"circle","title":"Miami - CloudFlare"},"type":"Feature"},{"geometry":{"coordinates":[-84.748535,33.897777],"type":"Point"},"id":"ci25nrt0k2e8vbfrwjrpt3l01","properties":{"description":"Edge Location","id":"marker-hs0jt02ki","marker-color":"#FFE900","marker-size":"medium","marker-symbol":"circle","title":"Atlanta - CloudFlare"},"type":"Feature"},{"geometry":{"coordinates":[-77.01416,38.925229],"type":"Point"},"id":"ci25nrt0l2e8wbfrwn4egx5cl","properties":{"description":"Edge Location","id":"marker-hs0jtblsj","marker-color":"#FFE900","marker-size":"medium","marker-symbol":"circle","title":"Washigton - CloudFlare"},"type":"Feature"},{"geometry":{"coordinates":[-88.02246,41.967659],"type":"Point"},"id":"ci25nrt0m2e8xbfrwcv89maaj","properties":{"description":"Edge Location","id":"marker-hs0ju630k","marker-color":"#FFE900","marker-size":"medium","marker-symbol":"circle","title":"Chicago - CloudFlare"},"type":"Feature"},{"geometry":{"coordinates":[-79.409179,43.659924],"type":"Point"},"id":"ci25nrt3y2e8ybfrwks2z6nl7","properties":{"description":"Edge Location","id":"marker-hs0juhhwl","marker-color":"#FFE900","marker-size":"medium","marker-symbol":"circle","title":"Toronto - CloudFlare"},"type":"Feature"},{"geometry":{"coordinates":[-74.186553,40.735811],"type":"Point"},"id":"ci25nrt4s2e8zbfrw4wayhjn1","properties":{"description":"Edge Location","id":"marker-hs0jvlham","marker-color":"#FFE900","marker-size":"medium","marker-symbol":"circle","title":"Newark - CloudFlare"},"type":"Feature"},{"geometry":{"coordinates":[-71.592407,-33.045507],"type":"Point"},"id":"ci25nrt542e90bfrw55c15ogr","properties":{"description":"Edge Location","id":"marker-hs0jx3c3n","marker-color":"#FFE900","marker-size":"medium","marker-symbol":"circle","title":"Valpraiso - CloudFlare"},"type":"Feature"},{"geometry":{"coordinates":[-0.856933,51.87649],"type":"Point"},"id":"ci25nrt562e91bfrwb7zwyf82","properties":{"description":"Edge Location","id":"marker-hs0jxnkxo","marker-color":"#FFE900","marker-size":"medium","marker-symbol":"circle","title":"London - CloudFlare"},"type":"Feature"},{"geometry":{"coordinates":[4.702148,52.372245],"type":"Point"},"id":"ci25nrt5a2e92bfrwcg2wmqkz","properties":{"description":"Edge Location","id":"marker-hs0jxzybp","marker-color":"#FFE900","marker-size":"medium","marker-symbol":"circle","title":"Amsterdam - CloudFlare"},"type":"Feature"},{"geometry":{"coordinates":[8.613281,50.064191],"type":"Point"},"id":"ci25nrt5b2e93bfrw6o81wrg5","properties":{"description":"Edge Location","id":"marker-hs0jykosq","marker-color":"#FFE900","marker-size":"medium","marker-symbol":"circle","title":"Frankfurt - CloudFlare"},"type":"Feature"},{"geometry":{"coordinates":[2.340087,48.864714],"type":"Point"},"id":"ci25nrt5f2e94bfrw2sclq6dp","properties":{"description":"Edge Location","id":"marker-hs0jz1w2r","marker-color":"#FFE900","marker-size":"medium","marker-symbol":"circle","title":"Paris - CloudFlare"},"type":"Feature"},{"geometry":{"coordinates":[16.369627,48.217352],"type":"Point"},"id":"ci25nrt5g2e95bfrwiuufzdz3","properties":{"description":"Edge Location","id":"marker-hs0jzphts","marker-color":"#FFE900","marker-size":"medium","marker-symbol":"circle","title":"Vienna - CloudFlare"},"type":"Feature"},{"geometry":{"coordinates":[14.447021,50.092393],"type":"Point"},"id":"ci25nrt5i2e96bfrwqnyotb66","properties":{"description":"Edge Location","id":"marker-hs0k0crbt","marker-color":"#FFE900","marker-size":"medium","marker-symbol":"circle","title":"Prague - CloudFlare"},"type":"Feature"},{"geometry":{"coordinates":[21.005859,52.254708],"type":"Point"},"id":"ci25nrt5n2e97bfrwirr04yxi","properties":{"description":"Edge Location","id":"marker-hs0k0ofsu","marker-color":"#FFE900","marker-size":"medium","marker-symbol":"circle","title":"Warsaw - CloudFlare"},"type":"Feature"},{"geometry":{"coordinates":[18.083496,59.344394],"type":"Point"},"id":"ci25nrt5s2e98bfrwlf9g6ida","properties":{"description":"Edge Location","id":"marker-hs0k111sv","marker-color":"#FFE900","marker-size":"medium","marker-symbol":"circle","title":"Stockholm"},"type":"Feature"},{"geometry":{"coordinates":[103.974609,1.318243],"type":"Point"},"id":"ci25nrt5t2e99bfrwqnxc16ng","properties":{"description":"Edge Location","id":"marker-hs0k1jadw","marker-color":"#FFE900","marker-size":"medium","marker-symbol":"circle","title":"Singapore - CloudFlare"},"type":"Feature"},{"geometry":{"coordinates":[151.171875,-33.760882],"type":"Point"},"id":"ci25nrt5w2e9abfrwg0632zju","properties":{"description":"Edge Location","id":"marker-hs0k1u2vx","marker-color":"#FFE900","marker-size":"medium","marker-symbol":"circle","title":"Sydney - CloudFlare"},"type":"Feature"},{"geometry":{"coordinates":[114.180908,22.289096],"type":"Point"},"id":"ci25nrt5y2e9bbfrwfrf638ru","properties":{"description":"Edge Location","id":"marker-hs0k4ngzy","marker-color":"#FFE900","marker-size":"medium","marker-symbol":"circle","title":"Hong Kong - CloudFlare"},"type":"Feature"},{"geometry":{"coordinates":[127.045898,37.544577],"type":"Point"},"id":"ci25nrt5z2e9cbfrwlmzn1qfo","properties":{"description":"Edge Location","id":"marker-hs0k53niz","marker-color":"#FFE900","marker-size":"medium","marker-symbol":"circle","title":"Seoul - CloudFlare"},"type":"Feature"},{"geometry":{"coordinates":[139.746093,35.710837],"type":"Point"},"id":"ci25nrt632e9dbfrwiattrh96","properties":{"description":"Edge Location","id":"marker-hs0k5fqo10","marker-color":"#FFE900","marker-size":"medium","marker-symbol":"circle","title":"Tokyo - CloudFlare"},"type":"Feature"},{"geometry":{"coordinates":[9.162597,45.47554],"type":"Point"},"id":"ci25nrt652e9ebfrw2ew7gigd","properties":{"description":"Sponsored POP location by Prometeus.net","id":"marker-hs0k69vi11","marker-color":"#1087bf","marker-size":"medium","marker-symbol":"p","title":"Milan - Prometeus "},"type":"Feature"},{"geometry":{"coordinates":[-9.18457,38.685509],"type":"Point"},"id":"ci25nrt672e9fbfrwsmyulrqc","properties":{"description":"Sponsored POP location by Leapswitch.com","id":"marker-hs0k71mc12","marker-color":"#548cba","marker-size":"medium","marker-symbol":"l","title":"Lisbon - Leapswitch"},"type":"Feature"},{"geometry":{"coordinates":[30.520019,50.443513],"type":"Point"},"id":"ci25nrt6o2e9gbfrwpxe6ggu6","properties":{"description":"Sponsored POP location by Leapswitch.com","id":"marker-hs0k7t2y13","marker-color":"#548cba","marker-size":"medium","marker-symbol":"l","title":"Kiev - Leapswitch"},"type":"Feature"},{"geometry":{"coordinates":[102.919921,1.933226],"type":"Point"},"id":"ci25nrt6q2e9hbfrwp1sgkrr4","properties":{"description":"Sponsored POP location by SecureAX.com","id":"marker-hs0k8ltl14","marker-color":"#ede8e4","marker-size":"medium","marker-symbol":"s","title":"Singapore - SecureAX"},"type":"Feature"},{"geometry":{"coordinates":[-3.702392,40.42186],"type":"Point"},"id":"ci25nrt8s2e9jbfrwmsqioy9t","properties":{"description":"Edge Location","id":"marker-hwf4r88e0","marker-color":"#ffe900","marker-size":"medium","marker-symbol":"circle","title":"Madrid - CloudFlare"},"type":"Feature"},{"geometry":{"coordinates":[113.818359,22.105998],"type":"Point"},"id":"ci25nrt932e9kbfrwutbhxeir","properties":{"description":"Edge Location","id":"marker-hym6cyvd0","marker-color":"#f36f21","marker-size":"medium","marker-symbol":"circle","title":"Hong Kong - MaxCDN"},"type":"Feature"},{"geometry":{"coordinates":[150.820312,-35.746512],"type":"Point"},"id":"ci25nrt962e9lbfrwngtjhiab","properties":{"description":"Edge Location","id":"marker-hym6ewcy1","marker-color":"#f36f21","marker-size":"medium","marker-symbol":"circle","title":"Syndey - MaxCDN"},"type":"Feature"},{"geometry":{"coordinates":[138.339843,34.524661],"type":"Point"},"id":"ci25nrt9b2e9mbfrwgs5bycta","properties":{"description":"Edge Location","id":"marker-hym6fbju2","marker-color":"#f36f21","marker-size":"medium","marker-symbol":"circle","title":"Tokyo - MaxCDN"},"type":"Feature"},{"geometry":{"coordinates":[-46.933593,-23.563987],"type":"Point"},"id":"ci25nrt9d2e9nbfrw3d4b33vj","properties":{"description":"Edge Location","id":"marker-hym6g98l3","marker-color":"#ffe900","marker-size":"medium","marker-symbol":"circle","title":"Sao Paulo - CloudFlare"},"type":"Feature"},{"geometry":{"coordinates":[-75.585937,6.315298],"type":"Point"},"id":"ci25nrt9g2e9obfrwueo2cxo5","properties":{"description":"Edge Location","id":"marker-hym6hrhk4","marker-color":"#ffe900","marker-size":"medium","marker-symbol":"circle","title":"Medellin - CloudFlare"},"type":"Feature"},{"geometry":{"coordinates":[9.711914,45.782848],"type":"Point"},"id":"ci25nrt9i2e9pbfrw8p73jyxe","properties":{"description":"Edge Location","id":"marker-hym6ie7i5","marker-color":"#ffe900","marker-size":"medium","marker-symbol":"circle","title":"Milan - CloudFlare"},"type":"Feature"},{"geometry":{"coordinates":[47.526683,-18.90856],"type":"Point"},"id":"ci2itpdox01njbkq6imopk1df","properties":{"description":"Sponsored POP location by telma.mg","id":"marker-i2itm2fr0","marker-color":"#006633","marker-size":"medium","marker-symbol":"t","title":"Antananarivo - Telma"},"type":"Feature"},{"geometry":{"coordinates":[-77.036132,-12.082295],"type":"Point"},"id":"ci3a7n970006cempn5ja9svji","properties":{"description":"Edge Location","id":"marker-i3a7lxt90","marker-color":"#ffe900","marker-size":"medium","marker-symbol":"circle","title":"Lima - CloudFlare"},"type":"Feature"},{"geometry":{"coordinates":[28.0810546875,-26.194876675795218],"type":"Point"},"properties":{"description":"Edge Location","id":"marker-i3h4vv160","marker-color":"#ffe900","marker-size":"medium","marker-symbol":"circle","title":"Johannesburg - CloudFlare"},"type":"Feature"}],"id":"jimaek.map-6gmedxyr","type":"FeatureCollection"}