{"type":"FeatureCollection","features":[{"type":"Feature","properties":{"id":"marker-icf5n5bk2","title":"Osaka - CloudFlare","description":"","marker-size":"medium","marker-color":"ffe900","marker-symbol":"circle"},"geometry":{"coordinates":[135.505371,34.723554],"type":"Point"},"id":"1cbd7896796c012ceeab0822f96c2872"},{"type":"Feature","properties":{"id":"marker-icf5iwtu0","title":"Mexico City- KeyCDN","description":"","marker-size":"medium","marker-color":"#1087bf","marker-symbol":"circle"},"geometry":{"coordinates":[-99.140625,19.601194],"type":"Point"},"id":"2b269dd0f260b7c5d9b003e78d3e23e5"},{"type":"Feature","properties":{"id":"marker-icf5q0co4","title":"Auckland - CloudFlare","description":"","marker-size":"medium","marker-color":"ffe900","marker-symbol":"circle"},"geometry":{"coordinates":[174.858398,-36.84446],"type":"Point"},"id":"7b2b1a981919a4fc747e3a83180dc9ab"},{"type":"Feature","properties":{"id":"marker-icf5kdtd1","title":"Istanbul - KeyCDN","description":"","marker-size":"medium","marker-color":"#1087bf","marker-symbol":"circle"},"geometry":{"coordinates":[28.95996,41.145569],"type":"Point"},"id":"c0c6a46ca8a222b0a406c0ce13c76d3d"},{"type":"Feature","properties":{"id":"marker-icf5pn123","title":"Melbourne - CloudFlare","description":"","marker-size":"medium","marker-color":"ffe900","marker-symbol":"circle"},"geometry":{"coordinates":[144.27246,-37.926867],"type":"Point"},"id":"ca2945f3beb0d2f62aa2ce1ce2f66bd1"},{"type":"Feature","properties":{"id":"ci25nrszz2e8ebfrwnla5cmtn","title":"Seattle - MaxCDN","description":"Edge Location","marker-size":"medium","marker-color":"#F36F21","marker-symbol":"circle"},"geometry":{"coordinates":[-123.134765,47.338822],"type":"Point"},"id":"ci9brkn2k26ssiylv0xrnhi32"},{"type":"Feature","properties":{"id":"ci25nrt002e8fbfrwhjh69wpe","title":"Chicago - MaxCDN","description":"Edge Location","marker-size":"medium","marker-color":"#F36F21","marker-symbol":"circle"},"geometry":{"coordinates":[-87.637939,41.804078],"type":"Point"},"id":"ci9brkn2m26stiylv5ktgjnx3"},{"type":"Feature","properties":{"id":"ci25nrt012e8gbfrwolekiqqr","title":"San Francisco - MaxCDN","description":"Edge Location","marker-size":"medium","marker-color":"#F36F21","marker-symbol":"circle"},"geometry":{"coordinates":[-122.43164,37.788081],"type":"Point"},"id":"ci9brkn2n26suiylvwj28dhz5"},{"type":"Feature","properties":{"id":"ci25nrt022e8hbfrwo7g8y5bh","title":"Los Angeles - MaxCDN","description":"Edge Location","marker-size":"medium","marker-color":"#F36F21","marker-symbol":"circle"},"geometry":{"coordinates":[-118.157958,33.724339],"type":"Point"},"id":"ci9brkn2o26sviylv9f5arzm1"},{"type":"Feature","properties":{"id":"ci25nrt042e8ibfrwh5t94fiz","title":"Dallas - MaxCDN","description":"Edge Location","marker-size":"medium","marker-color":"#F36F21","marker-symbol":"circle"},"geometry":{"coordinates":[-96.855468,32.7688],"type":"Point"},"id":"ci9brkn2p26swiylvec6ns4pe"},{"type":"Feature","properties":{"id":"ci25nrt052e8jbfrw9k4oj0wv","title":"Miami - MaxCDN","description":"Edge Location","marker-size":"medium","marker-color":"#F36F21","marker-symbol":"circle"},"geometry":{"coordinates":[-80.15625,25.799891],"type":"Point"},"id":"ci9brkn2q26sxiylvdf9wdkyp"},{"type":"Feature","properties":{"id":"ci25nrt072e8kbfrwaffm93so","title":"Atlanta - MaxCDN","description":"Edge Location","marker-size":"medium","marker-color":"#F36F21","marker-symbol":"circle"},"geometry":{"coordinates":[-84.375,33.797408],"type":"Point"},"id":"ci9brkn2r26syiylvxqoomeoh"},{"type":"Feature","properties":{"id":"ci25nrt082e8lbfrwx1mbmcnl","title":"Ashburn - MaxCDN","description":"Edge Location","marker-size":"medium","marker-color":"#F36F21","marker-symbol":"circle"},"geometry":{"coordinates":[-77.519531,39.019183],"type":"Point"},"id":"ci9brkn2s26sziylvaetuji4o"},{"type":"Feature","properties":{"id":"ci25nrt0a2e8mbfrwze8y3809","title":"New York - MaxCDN","description":"Edge Location","marker-size":"medium","marker-color":"#F36F21","marker-symbol":"circle"},"geometry":{"coordinates":[-73.95996,40.676472],"type":"Point"},"id":"ci9brkn2t26t0iylvbcr62oy2"},{"type":"Feature","properties":{"id":"ci25nrt0b2e8nbfrwn8wn2ktj","title":"London - MaxCDN","description":"Edge Location","marker-size":"medium","marker-color":"#F36F21","marker-symbol":"circle"},"geometry":{"coordinates":[-0.131835,51.508742],"type":"Point"},"id":"ci9brkn2v26t1iylvgpnjcxj8"},{"type":"Feature","properties":{"id":"ci25nrt0c2e8obfrwv3o7kuxt","title":"Amsterdam - MaxCDN","description":"Edge Location","marker-size":"medium","marker-color":"#F36F21","marker-symbol":"circle"},"geometry":{"coordinates":[4.921875,52.200873],"type":"Point"},"id":"ci9brkn2w26t2iylvlo8xlfiq"},{"type":"Feature","properties":{"id":"ci25nrt0d2e8pbfrwdo02k76u","title":"Frankfurt - MaxCDN","description":"Edge Location","marker-size":"medium","marker-color":"#F36F21","marker-symbol":"circle"},"geometry":{"coordinates":[8.767089,49.809631],"type":"Point"},"id":"ci9brkn2x26t3iylvnmajmlni"},{"type":"Feature","properties":{"id":"ci25nrt0e2e8qbfrww0gal5m4","title":"Seatle - CloudFlare","description":"Edge Location","marker-size":"medium","marker-color":"#FFE900","marker-symbol":"circle"},"geometry":{"coordinates":[-122.316284,47.603385],"type":"Point"},"id":"ci9brkn2y26t4iylvehkgpw37"},{"type":"Feature","properties":{"id":"ci25nrt0f2e8rbfrw4559ue4w","title":"San Jose - CloudFlare","description":"Edge Location","marker-size":"medium","marker-color":"#FFE900","marker-symbol":"circle"},"geometry":{"coordinates":[-122.091064,38.004819],"type":"Point"},"id":"ci9brkn2z26t5iylvneieakoe"},{"type":"Feature","properties":{"id":"ci25nrt0h2e8sbfrwp6tkkqak","title":"Los Angeles - CloudFlare","description":"Edge Location","marker-size":"medium","marker-color":"#FFE900","marker-symbol":"circle"},"geometry":{"coordinates":[-117.960205,33.979808],"type":"Point"},"id":"ci9brkn3026t6iylvgce1p9x8"},{"type":"Feature","properties":{"id":"ci25nrt0i2e8tbfrwz1zljyx7","title":"Dallas - CloudFlare","description":"Edge Location","marker-size":"medium","marker-color":"#FFE900","marker-symbol":"circle"},"geometry":{"coordinates":[-96.591796,32.907262],"type":"Point"},"id":"ci9brkn3126t7iylvsssu2cbo"},{"type":"Feature","properties":{"id":"ci25nrt0j2e8ubfrwfq4e10pm","title":"Miami - CloudFlare","description":"Edge Location","marker-size":"medium","marker-color":"#FFE900","marker-symbol":"circle"},"geometry":{"coordinates":[-80.90332,26.086388],"type":"Point"},"id":"ci9brkn3226t8iylvpjvd8qtj"},{"type":"Feature","properties":{"id":"ci25nrt0k2e8vbfrwjrpt3l01","title":"Atlanta - CloudFlare","description":"Edge Location","marker-size":"medium","marker-color":"#FFE900","marker-symbol":"circle"},"geometry":{"coordinates":[-85.100097,33.961586],"type":"Point"},"id":"ci9brkn3326t9iylv10dx73xj"},{"type":"Feature","properties":{"id":"ci25nrt0l2e8wbfrwn4egx5cl","title":"Washigton - CloudFlare","description":"Edge Location","marker-size":"medium","marker-color":"#FFE900","marker-symbol":"circle"},"geometry":{"coordinates":[-77.01416,38.925229],"type":"Point"},"id":"ci9brkn3426taiylvn1e22u9v"},{"type":"Feature","properties":{"id":"ci25nrt0m2e8xbfrwcv89maaj","title":"Chicago - CloudFlare","description":"Edge Location","marker-size":"medium","marker-color":"#FFE900","marker-symbol":"circle"},"geometry":{"coordinates":[-88.198242,41.754922],"type":"Point"},"id":"ci9brkn3526tbiylvmm09pao1"},{"type":"Feature","properties":{"id":"ci25nrt3y2e8ybfrwks2z6nl7","title":"Toronto - CloudFlare","description":"Edge Location","marker-size":"medium","marker-color":"#FFE900","marker-symbol":"circle"},"geometry":{"coordinates":[-79.409179,43.659924],"type":"Point"},"id":"ci9brkn3726tciylv0x6gfnsd"},{"type":"Feature","properties":{"id":"ci25nrt4s2e8zbfrw4wayhjn1","title":"Newark - CloudFlare","description":"Edge Location","marker-size":"medium","marker-color":"#FFE900","marker-symbol":"circle"},"geometry":{"coordinates":[-74.186553,40.735811],"type":"Point"},"id":"ci9brkn3926tdiylv9aw1jl76"},{"type":"Feature","properties":{"id":"ci25nrt542e90bfrw55c15ogr","title":"Valpraiso - CloudFlare","description":"Edge Location","marker-size":"medium","marker-color":"#FFE900","marker-symbol":"circle"},"geometry":{"coordinates":[-71.592407,-33.045507],"type":"Point"},"id":"ci9brkn3a26teiylv0g3hhj5e"},{"type":"Feature","properties":{"id":"ci25nrt562e91bfrwb7zwyf82","title":"London - CloudFlare","description":"Edge Location","marker-size":"medium","marker-color":"#FFE900","marker-symbol":"circle"},"geometry":{"coordinates":[-0.725097,51.658926],"type":"Point"},"id":"ci9brkn3b26tfiylv7h1abpgk"},{"type":"Feature","properties":{"id":"ci25nrt5a2e92bfrwcg2wmqkz","title":"Amsterdam - CloudFlare","description":"Edge Location","marker-size":"medium","marker-color":"#FFE900","marker-symbol":"circle"},"geometry":{"coordinates":[4.702148,52.372245],"type":"Point"},"id":"ci9brkn3c26tgiylvolyircrk"},{"type":"Feature","properties":{"id":"ci25nrt5b2e93bfrw6o81wrg5","title":"Frankfurt - CloudFlare","description":"Edge Location","marker-size":"medium","marker-color":"#FFE900","marker-symbol":"circle"},"geometry":{"coordinates":[8.613281,50.064191],"type":"Point"},"id":"ci9brkn3e26thiylvyn6s009i"},{"type":"Feature","properties":{"id":"ci25nrt5f2e94bfrw2sclq6dp","title":"Paris - CloudFlare","description":"Edge Location","marker-size":"medium","marker-color":"#FFE900","marker-symbol":"circle"},"geometry":{"coordinates":[2.340087,48.864714],"type":"Point"},"id":"ci9brkn3f26tiiylvc2nry6zj"},{"type":"Feature","properties":{"id":"ci25nrt5g2e95bfrwiuufzdz3","title":"Vienna - CloudFlare","description":"Edge Location","marker-size":"medium","marker-color":"#FFE900","marker-symbol":"circle"},"geometry":{"coordinates":[16.369627,48.217352],"type":"Point"},"id":"ci9brkn3g26tjiylvxyk0omqm"},{"type":"Feature","properties":{"id":"ci25nrt5i2e96bfrwqnyotb66","title":"Prague - CloudFlare","description":"Edge Location","marker-size":"medium","marker-color":"#FFE900","marker-symbol":"circle"},"geometry":{"coordinates":[14.447021,50.092393],"type":"Point"},"id":"ci9brkn3h26tkiylv5kppu1rr"},{"type":"Feature","properties":{"id":"ci25nrt5n2e97bfrwirr04yxi","title":"Warsaw - CloudFlare","description":"Edge Location","marker-size":"medium","marker-color":"#FFE900","marker-symbol":"circle"},"geometry":{"coordinates":[21.005859,52.254708],"type":"Point"},"id":"ci9brkn3j26tliylvog52icbn"},{"type":"Feature","properties":{"id":"ci25nrt5s2e98bfrwlf9g6ida","title":"Stockholm","description":"Edge Location","marker-size":"medium","marker-color":"#FFE900","marker-symbol":"circle"},"geometry":{"coordinates":[18.083496,59.344394],"type":"Point"},"id":"ci9brkn3k26tmiylvpm90nu4q"},{"type":"Feature","properties":{"id":"ci25nrt5t2e99bfrwqnxc16ng","title":"Singapore - CloudFlare","description":"Edge Location","marker-size":"medium","marker-color":"#FFE900","marker-symbol":"circle"},"geometry":{"coordinates":[103.809814,1.340209],"type":"Point"},"id":"ci9brkn3l26tniylvcpxjw3tx"},{"type":"Feature","properties":{"id":"ci25nrt5w2e9abfrwg0632zju","title":"Sydney - CloudFlare","description":"Edge Location","marker-size":"medium","marker-color":"#FFE900","marker-symbol":"circle"},"geometry":{"coordinates":[151.171875,-33.760882],"type":"Point"},"id":"ci9brkn3m26toiylv4zzdjnae"},{"type":"Feature","properties":{"id":"ci25nrt5y2e9bbfrwfrf638ru","title":"Hong Kong - CloudFlare","description":"Edge Location","marker-size":"medium","marker-color":"#FFE900","marker-symbol":"circle"},"geometry":{"coordinates":[114.180908,22.289096],"type":"Point"},"id":"ci9brkn3n26tpiylvbpmjiqmw"},{"type":"Feature","properties":{"id":"ci25nrt5z2e9cbfrwlmzn1qfo","title":"Seoul - CloudFlare","description":"Edge Location","marker-size":"medium","marker-color":"#FFE900","marker-symbol":"circle"},"geometry":{"coordinates":[127.045898,37.544577],"type":"Point"},"id":"ci9brkn3q26tqiylvwdyjpkbi"},{"type":"Feature","properties":{"id":"ci25nrt632e9dbfrwiattrh96","title":"Tokyo - CloudFlare","description":"Edge Location","marker-size":"medium","marker-color":"#FFE900","marker-symbol":"circle"},"geometry":{"coordinates":[139.746093,35.710837],"type":"Point"},"id":"ci9brkn3r26triylvjfubxblj"},{"type":"Feature","properties":{"id":"ci25nrt8s2e9jbfrwmsqioy9t","title":"Madrid - CloudFlare","description":"Edge Location","marker-size":"medium","marker-color":"#ffe900","marker-symbol":"circle"},"geometry":{"coordinates":[-3.702392,40.42186],"type":"Point"},"id":"ci9brkn3t26ttiylvwrmquedv"},{"type":"Feature","properties":{"id":"ci25nrt932e9kbfrwutbhxeir","title":"Hong Kong - MaxCDN","description":"Edge Location","marker-size":"medium","marker-color":"#f36f21","marker-symbol":"circle"},"geometry":{"coordinates":[113.818359,22.105998],"type":"Point"},"id":"ci9brkn3v26tuiylv23dz7eqe"},{"type":"Feature","properties":{"id":"ci25nrt962e9lbfrwngtjhiab","title":"Syndey - MaxCDN","description":"Edge Location","marker-size":"medium","marker-color":"#f36f21","marker-symbol":"circle"},"geometry":{"coordinates":[150.644531,-35.2815],"type":"Point"},"id":"ci9brkn3x26tviylvdgv3lbq2"},{"type":"Feature","properties":{"id":"ci25nrt9b2e9mbfrwgs5bycta","title":"Tokyo - MaxCDN","description":"Edge Location","marker-size":"medium","marker-color":"#f36f21","marker-symbol":"circle"},"geometry":{"coordinates":[138.339843,34.524661],"type":"Point"},"id":"ci9brkn3y26twiylvooo6to19"},{"type":"Feature","properties":{"id":"ci25nrt9d2e9nbfrw3d4b33vj","title":"Sao Paulo - CloudFlare","description":"Edge Location","marker-size":"medium","marker-color":"#ffe900","marker-symbol":"circle"},"geometry":{"coordinates":[-46.933593,-23.563987],"type":"Point"},"id":"ci9brkn4026txiylvy84e91t1"},{"type":"Feature","properties":{"id":"ci25nrt9g2e9obfrwueo2cxo5","title":"Medellin - CloudFlare","description":"Edge Location","marker-size":"medium","marker-color":"#ffe900","marker-symbol":"circle"},"geometry":{"coordinates":[-75.585937,6.315298],"type":"Point"},"id":"ci9brkn4226tyiylv7wwnli9n"},{"type":"Feature","properties":{"id":"ci25nrt9i2e9pbfrw8p73jyxe","title":"Milan - CloudFlare","description":"Edge Location","marker-size":"medium","marker-color":"#ffe900","marker-symbol":"circle"},"geometry":{"coordinates":[9.27246,45.413876],"type":"Point"},"id":"ci9brkn4426tziylvnka7ocj3"},{"type":"Feature","properties":{"id":"ci2itpdox01njbkq6imopk1df","title":"Antananarivo - Telma","description":"Sponsored POP location by telma.mg","marker-size":"medium","marker-color":"#006633","marker-symbol":"t"},"geometry":{"coordinates":[47.526683,-18.90856],"type":"Point"},"id":"ci9brkn4526u0iylvpohvg5vo"},{"type":"Feature","properties":{"id":"ci3a7n970006cempn5ja9svji","title":"Lima - CloudFlare","description":"Edge Location","marker-size":"medium","marker-color":"#ffe900","marker-symbol":"circle"},"geometry":{"coordinates":[-77.036132,-12.082295],"type":"Point"},"id":"ci9brkn4726u1iylvs6yfr64z"},{"type":"Feature","properties":{"id":"ci3h4x48z01csgfnow4wyfbhc","title":"Johannesburg - CloudFlare","description":"Edge Location","marker-size":"medium","marker-color":"#ffe900","marker-symbol":"circle"},"geometry":{"coordinates":[28.081054,-26.194876],"type":"Point"},"id":"ci9brkn4826u2iylv0y9a5o4n"},{"type":"Feature","properties":{"id":"ci3jxm3v400daj8ppj97ejn0h","title":"Singapore - MaxCDN","description":"Edge Location","marker-size":"medium","marker-color":"#f36f21","marker-symbol":"circle"},"geometry":{"coordinates":[104.018554,1.296276],"type":"Point"},"id":"ci9brkn4a26u3iylv9diczqhs"},{"type":"Feature","properties":{"id":"ci4wqeeyn003mk8s0tlqncu6j","title":"Moscow - KeyCDN","description":"Edge Location","marker-size":"medium","marker-color":"#3686BE","marker-symbol":"circle"},"geometry":{"coordinates":[37.617187,55.776573],"type":"Point"},"id":"ci9brkn4b26u4iylvzz0dvzkw"},{"type":"Feature","properties":{"id":"ci4wqeeyp003nk8s0984j2gzv","title":"Atlanta - KeyCDN","description":"","marker-size":"medium","marker-color":"#3686BE","marker-symbol":"circle"},"geometry":{"coordinates":[-83.80371,33.979808],"type":"Point"},"id":"ci9brkn4c26u5iylv8d7y0hxy"},{"type":"Feature","properties":{"id":"ci4wqeeyq003ok8s0s1d7y81b","title":"Chicago - KeyCDN","description":"","marker-size":"medium","marker-color":"#3686BE","marker-symbol":"circle"},"geometry":{"coordinates":[-86.835937,41.804078],"type":"Point"},"id":"ci9brkn4d26u6iylvvzcir1kc"},{"type":"Feature","properties":{"id":"ci4wqeeyr003pk8s09gp4191l","title":"Dallas - KeyCDN","description":"","marker-size":"medium","marker-color":"#3686BE","marker-symbol":"circle"},"geometry":{"coordinates":[-97.646484,32.971803],"type":"Point"},"id":"ci9brkn4e26u7iylvxcgthh9w"},{"type":"Feature","properties":{"id":"ci4wqeeys003qk8s0vvmvyrbm","title":"Miami - KeyCDN","description":"","marker-size":"medium","marker-color":"#3686BE","marker-symbol":"circle"},"geometry":{"coordinates":[-81.782226,25.859223],"type":"Point"},"id":"ci9brkn4f26u8iylvz2igi060"},{"type":"Feature","properties":{"id":"ci4wqeeyt003rk8s0spey401j","title":"Los Angeles - KeyCDN","description":"","marker-size":"medium","marker-color":"#3686BE","marker-symbol":"circle"},"geometry":{"coordinates":[-117.46582,33.998027],"type":"Point"},"id":"ci9brkn4h26u9iylvajud9byz"},{"type":"Feature","properties":{"id":"ci4wqeeyu003sk8s0x52hijb4","title":"San Jose - KeyCDN","description":"","marker-size":"medium","marker-color":"#3686BE","marker-symbol":"circle"},"geometry":{"coordinates":[-121.827392,37.282794],"type":"Point"},"id":"ci9brkn4j26uaiylvsle7vc9w"},{"type":"Feature","properties":{"id":"ci4wqeeyv003tk8s0wfhkrckg","title":"Seattle - KeyCDN","description":"","marker-size":"medium","marker-color":"#3686BE","marker-symbol":"circle"},"geometry":{"coordinates":[-121.728515,47.524619],"type":"Point"},"id":"ci9brkn4k26ubiylvxh5g86ro"},{"type":"Feature","properties":{"id":"ci4wqeeyw003uk8s05xrn92qa","title":"Washignton - KeyCDN","description":"","marker-size":"medium","marker-color":"#3686BE","marker-symbol":"circle"},"geometry":{"coordinates":[-76.728515,38.788345],"type":"Point"},"id":"ci9brkn4m26uciylvpkyfmg26"},{"type":"Feature","properties":{"id":"ci4wqeeyx003vk8s0yrzrdnxp","title":"Amsterdam - KeyCDN","description":"","marker-size":"medium","marker-color":"#3686BE","marker-symbol":"circle"},"geometry":{"coordinates":[5.207519,52.368891],"type":"Point"},"id":"ci9brkn4o26udiylvyaulo8fm"},{"type":"Feature","properties":{"id":"ci4wqeeyy003wk8s0jxf8rzqd","title":"Frankfurt - KeyCDN","description":"","marker-size":"medium","marker-color":"#3686BE","marker-symbol":"circle"},"geometry":{"coordinates":[8.140869,49.979487],"type":"Point"},"id":"ci9brkn4p26ueiylvlb78nq5l"},{"type":"Feature","properties":{"id":"ci4wqeeyz003xk8s0i1fm8098","title":"London - KeyCDN","description":"","marker-size":"medium","marker-color":"#3686BE","marker-symbol":"circle"},"geometry":{"coordinates":[0.461425,51.631657],"type":"Point"},"id":"ci9brkn4r26ufiylv7fujaml5"},{"type":"Feature","properties":{"id":"ci4wqeez0003yk8s04xa4fszb","title":"Milan - KeyCDN","description":"","marker-size":"medium","marker-color":"#3686BE","marker-symbol":"circle"},"geometry":{"coordinates":[9.019775,45.452424],"type":"Point"},"id":"ci9brkn4t26ugiylvslnnfols"},{"type":"Feature","properties":{"id":"ci4wqeez1003zk8s03w2iwzqn","title":"Paris - France","description":"","marker-size":"medium","marker-color":"#3686BE","marker-symbol":"circle"},"geometry":{"coordinates":[2.90039,48.763431],"type":"Point"},"id":"ci9brkn4v26uhiylvhic1em0l"},{"type":"Feature","properties":{"id":"ci4wqeez20040k8s0seuwwhpz","title":"Stockholm - KeyCDN","description":"","marker-size":"medium","marker-color":"#3686BE","marker-symbol":"circle"},"geometry":{"coordinates":[17.314453,59.467407],"type":"Point"},"id":"ci9brkn4w26uiiylv92209vmh"},{"type":"Feature","properties":{"id":"ci4wqeez30041k8s0ccwumrb9","title":"Valencia - KeyCDN","description":"","marker-size":"medium","marker-color":"#3686BE","marker-symbol":"circle"},"geometry":{"coordinates":[-0.439453,39.470125],"type":"Point"},"id":"ci9brkn4y26ujiylvf6cnh3gt"},{"type":"Feature","properties":{"id":"ci4wqeez40042k8s0ul7nnv13","title":"Hong Kong - KeyCDN","description":"","marker-size":"medium","marker-color":"#3686BE","marker-symbol":"circle"},"geometry":{"coordinates":[114.400634,22.471954],"type":"Point"},"id":"ci9brkn5026ukiylvimgr1fma"},{"type":"Feature","properties":{"id":"ci4wqeez50043k8s0iqt1fls5","title":"Melbourne - KeyCDN","description":"","marker-size":"medium","marker-color":"#3686BE","marker-symbol":"circle"},"geometry":{"coordinates":[145.019531,-37.753344],"type":"Point"},"id":"ci9brkn5126uliylvnydcu1bh"},{"type":"Feature","properties":{"id":"ci4wqeez60044k8s0l0l6l267","title":"Singapore - KeyCDN","description":"","marker-size":"medium","marker-color":"#3686BE","marker-symbol":"circle"},"geometry":{"coordinates":[103.502197,1.395125],"type":"Point"},"id":"ci9brkn5326umiylvm8fbx309"},{"type":"Feature","properties":{"id":"ci4wqeez70045k8s0039utjg4","title":"Tokyo - KeyCDN","description":"","marker-size":"medium","marker-color":"#3686BE","marker-symbol":"circle"},"geometry":{"coordinates":[140.449218,35.137879],"type":"Point"},"id":"ci9brkn5426uniylv14aisvmq"},{"type":"Feature","properties":{"id":"ci4wqeez80046k8s0ik0yws46","title":"Tel Aviv - MaxCDN","description":"","marker-size":"medium","marker-color":"#f36f21","marker-symbol":"circle"},"geometry":{"coordinates":[34.782714,32.119801],"type":"Point"},"id":"ci9brkn5626uoiylvdktpw9b3"},{"type":"Feature","properties":{"id":"marker-i7z7480s0","title":"Dusseldorf - CloudFlare","description":"Edge Location","marker-size":"medium","marker-color":"#ffe900","marker-symbol":"circle"},"geometry":{"coordinates":[6.745605,51.248163],"type":"Point"},"id":"ci9brkn5726upiylv097e4wh5"},{"type":"Feature","properties":{"id":"marker-i7z77mhj1","title":"Buenos Aires - CloudFlare","description":"Edge Location","marker-size":"medium","marker-color":"#ffe900","marker-symbol":"circle"},"geometry":{"coordinates":[-58.40332,-34.560859],"type":"Point"},"id":"ci9brkn5926uqiylv84zo97fg"},{"type":"Feature","properties":{"id":"marker-ia8ffcdq0","title":"Paris - MaxCDN","description":"Edge Location","marker-size":"medium","marker-color":"f36f21","marker-symbol":"circle"},"geometry":{"coordinates":[2.702636,48.951366],"type":"Point"},"id":"cia8fjjpu01fwkdm7sh559i94"},{"type":"Feature","properties":{"id":"marker-icf5qzui5","title":"Marseille - CloudFlare","description":"","marker-size":"medium","marker-color":"ffe900","marker-symbol":"circle"},"geometry":{"coordinates":[5.361328,43.325177],"type":"Point"},"id":"faa32755dee2f4457d99bb7af820f8cc"}],"id":"jimaek.map-6gmedxyr"}