{"type":"FeatureCollection","features":[{"type":"Feature","properties":{"id":"marker-icib6h29i","title":"Ganzhou - QUANTIL","description":"","marker-size":"medium","marker-color":"#D61900","marker-symbol":"circle"},"geometry":{"coordinates":[114.939393,25.863317],"type":"Point"},"id":"0a52af26ccbbb3bd64ab55ae9528b22c"},{"type":"Feature","properties":{"id":"marker-iciaw3nj4","title":"Guiyang - QUANTIL","description":"","marker-size":"medium","marker-color":"#D61900","marker-symbol":"circle"},"geometry":{"coordinates":[106.693725,26.593439],"type":"Point"},"id":"0a927a2cb696ac476e550362a5025f94"},{"type":"Feature","properties":{"id":"marker-id6zbdr42","title":"Kuwait - CloudFlare","description":"Edge Location","marker-size":"medium","marker-color":"#ffe900","marker-symbol":"circle"},"geometry":{"coordinates":[47.905883,29.293585],"type":"Point"},"id":"1a527408cc21f97c9deb3796cf9c535f"},{"type":"Feature","properties":{"id":"marker-iciar1160","title":"Bangkok - QUANTIL","description":"","marker-size":"medium","marker-color":"#D61900","marker-symbol":"circle"},"geometry":{"coordinates":[100.546875,13.752724],"type":"Point"},"id":"1b70ccf1a5281fafb531ce456ac3b238"},{"type":"Feature","properties":{"id":"marker-icf5n5bk2","title":"Osaka - CloudFlare","description":"","marker-size":"medium","marker-color":"ffe900","marker-symbol":"circle"},"geometry":{"coordinates":[135.505371,34.723554],"type":"Point"},"id":"1cbd7896796c012ceeab0822f96c2872"},{"type":"Feature","properties":{"id":"marker-icib5wllg","title":"Shenzhen - QUANTIL","description":"","marker-size":"medium","marker-color":"#D61900","marker-symbol":"circle"},"geometry":{"coordinates":[114.059715,22.541732],"type":"Point"},"id":"287885ba12a6968abf91a9bea8f5f43c"},{"type":"Feature","properties":{"id":"marker-icf5iwtu0","title":"Mexico City- KeyCDN","description":"","marker-size":"medium","marker-color":"#1087bf","marker-symbol":"circle"},"geometry":{"coordinates":[-99.140625,19.601194],"type":"Point"},"id":"2b269dd0f260b7c5d9b003e78d3e23e5"},{"type":"Feature","properties":{"id":"marker-icib7gb5k","title":"Jiaxing - QUANTIL","description":"","marker-size":"medium","marker-color":"#D61900","marker-symbol":"circle"},"geometry":{"coordinates":[120.747213,30.765328],"type":"Point"},"id":"2d475e6cf8397a4bcfb6b0dea19bbecf"},{"type":"Feature","properties":{"id":"marker-icib76mvj","title":"Lishui - QUANTIL","description":"","marker-size":"medium","marker-color":"#D61900","marker-symbol":"circle"},"geometry":{"coordinates":[119.849853,28.463862],"type":"Point"},"id":"302a819ccdc06eac19c25fa781992e6c"},{"type":"Feature","properties":{"id":"marker-id6zatvo1","title":"Dubai - CloudFlare","description":"Edge Location","marker-size":"medium","marker-color":"#ffe900","marker-symbol":"circle"},"geometry":{"coordinates":[55.305175,25.263326],"type":"Point"},"id":"314437801e0d361c3b9a4c54c02999b7"},{"type":"Feature","properties":{"id":"marker-ignga4t40","title":"Manchester - CloudFlare","description":"","marker-size":"medium","marker-color":"#ffe900","marker-symbol":"circle"},"geometry":{"coordinates":[-2.263183,53.488045],"type":"Point"},"id":"3575a50793a8bbca4e9e0747cb32e88e"},{"type":"Feature","properties":{"id":"marker-ics0ta4s0","title":"Bucharest - CloudFlare","description":"Edge Location","marker-size":"medium","marker-color":"ffe900","marker-symbol":"circle"},"geometry":{"coordinates":[26.05957,44.465151],"type":"Point"},"id":"45d19ce89dae728963924ec2be00b61c"},{"type":"Feature","properties":{"id":"marker-iciat1vy1","title":"Xi'an - QUANTIL","description":"","marker-size":"medium","marker-color":"#D61900","marker-symbol":"circle"},"geometry":{"coordinates":[108.940429,34.302606],"type":"Point"},"id":"4cc2009dd6b9a4e559e53fdfe03ac6e6"},{"type":"Feature","properties":{"id":"marker-id6z94ds0","title":"Doha - CloudFlare","description":"Edge Location","marker-size":"medium","marker-color":"#ffe900","marker-symbol":"circle"},"geometry":{"coordinates":[51.527252,25.287231],"type":"Point"},"id":"4da7303817cb6b32127c6db0814ed6be"},{"type":"Feature","properties":{"id":"marker-ii4sv43o1","title":"Mumbai - CloudFlare","description":"","marker-size":"medium","marker-color":"#ffe900","marker-symbol":"circle"},"geometry":{"coordinates":[72.905273,19.020577],"type":"Point"},"id":"539daa8d96ff6260442b5d45ce9b751c"},{"type":"Feature","properties":{"id":"marker-ii4su7b30","title":"Copenhagen - CloudFlare","description":"","marker-size":"medium","marker-color":"#ffe900","marker-symbol":"circle"},"geometry":{"coordinates":[12.568359,55.689971],"type":"Point"},"id":"64c7924ff4ffb376082078c9f3102388"},{"type":"Feature","properties":{"id":"marker-icib0kbj8","title":"Mudanjiang - QUANTIL","description":"","marker-size":"medium","marker-color":"#D61900","marker-symbol":"circle"},"geometry":{"coordinates":[129.602966,44.577752],"type":"Point"},"id":"650542a1a1587d3b3c40310b2f617bdc"},{"type":"Feature","properties":{"id":"marker-icib65zjh","title":"Shanghai - QUANTIL","description":"","marker-size":"medium","marker-color":"#D61900","marker-symbol":"circle"},"geometry":{"coordinates":[121.448364,31.224545],"type":"Point"},"id":"74fefeca7380cbf1812de0b967da1976"},{"type":"Feature","properties":{"id":"marker-icf5q0co4","title":"Auckland - CloudFlare","description":"","marker-size":"medium","marker-color":"ffe900","marker-symbol":"circle"},"geometry":{"coordinates":[174.858398,-36.84446],"type":"Point"},"id":"7b2b1a981919a4fc747e3a83180dc9ab"},{"type":"Feature","properties":{"id":"marker-icib21tra","title":"Deyang - QUANTIL","description":"","marker-size":"medium","marker-color":"#D61900","marker-symbol":"circle"},"geometry":{"coordinates":[104.394836,31.116443],"type":"Point"},"id":"7bb67843c3e7fc159c97bea3636fa714"},{"type":"Feature","properties":{"id":"marker-ii4sw5i74","title":"Zurich - CloudFlare","description":"","marker-size":"medium","marker-color":"#ffe900","marker-symbol":"circle"},"geometry":{"coordinates":[8.547363,47.383473],"type":"Point"},"id":"7c3047e07df894d37d95d5c07bda9887"},{"type":"Feature","properties":{"id":"marker-icyv0hqf0","title":"Dublin - CloudFlare","description":"Edge location","marker-size":"medium","marker-color":"#ffe900","marker-symbol":"circle"},"geometry":{"coordinates":[-6.218261,53.343992],"type":"Point"},"id":"7c9a124e5d9395323cbddcbad9fc6533"},{"type":"Feature","properties":{"id":"marker-ii4svr8m3","title":"New Delhi - CloudFlare","description":"","marker-size":"medium","marker-color":"#ffe900","marker-symbol":"circle"},"geometry":{"coordinates":[77.255859,28.65203],"type":"Point"},"id":"893398028114e434fd78ac91d40cc6d5"},{"type":"Feature","properties":{"id":"marker-icib3c9ub","title":"Nanchong - QUANTIL","description":"","marker-size":"medium","marker-color":"#D61900","marker-symbol":"circle"},"geometry":{"coordinates":[106.056518,30.855079],"type":"Point"},"id":"89b6d1b7fdb6e38d74fa4dc195b5a912"},{"type":"Feature","properties":{"id":"marker-iciaxa5t6","title":"Jilin - QUANTIL","description":"","marker-size":"medium","marker-color":"#D61900","marker-symbol":"circle"},"geometry":{"coordinates":[126.529541,43.858296],"type":"Point"},"id":"931b28af90c10aafa9e1a1c116642ee2"},{"type":"Feature","properties":{"id":"marker-igp5s6kf0","title":"Phoenix - CloudFlare","description":"","marker-size":"medium","marker-color":"#ffe900","marker-symbol":"circle"},"geometry":{"coordinates":[-112.060546,33.449776],"type":"Point"},"id":"96b7ca1b4fedba191fdeaf43eab0495f"},{"type":"Feature","properties":{"id":"marker-icib5km5f","title":"Jiaozuo - QUANTIL","description":"","marker-size":"medium","marker-color":"#D61900","marker-symbol":"circle"},"geometry":{"coordinates":[113.216686,35.238994],"type":"Point"},"id":"9f0974fc8fa005aa0e78c821f08b48d3"},{"type":"Feature","properties":{"id":"marker-icib0zvp9","title":"Anyang - QUANTIL","description":"","marker-size":"medium","marker-color":"#D61900","marker-symbol":"circle"},"geometry":{"coordinates":[114.329223,36.102376],"type":"Point"},"id":"a6f46ef3d5878609a36ed03eeaec68c0"},{"type":"Feature","properties":{"id":"marker-id6zbwun3","title":"Muscat - CloudFlare","description":"Edge Location","marker-size":"medium","marker-color":"#ffe900","marker-symbol":"circle"},"geometry":{"coordinates":[58.533782,23.601745],"type":"Point"},"id":"b03b575d3a87551c571c018862a9f4c7"},{"type":"Feature","properties":{"id":"marker-iciaufdf2","title":"Chengdu - QUANTIL","description":"","marker-size":"medium","marker-color":"#D61900","marker-symbol":"circle"},"geometry":{"coordinates":[104.0625,30.694611],"type":"Point"},"id":"b7005ea4460d71edd6b6d15eaeba7560"},{"type":"Feature","properties":{"id":"marker-idud7v8z0","title":"Mombasa - CloudFlare","description":"Edge Location","marker-size":"medium","marker-color":"#ffe900","marker-symbol":"circle"},"geometry":{"coordinates":[39.638671,-4.017699],"type":"Point"},"id":"b9feb1fc381f7dd235c7f2d658fcf88f"},{"type":"Feature","properties":{"id":"marker-ii4svdox2","title":"Chennai - CloudFlare","description":"","marker-size":"medium","marker-color":"#ffe900","marker-symbol":"circle"},"geometry":{"coordinates":[80.332031,13.154376],"type":"Point"},"id":"be39d5d9d70732984c8da2cb19fba067"},{"type":"Feature","properties":{"id":"marker-iefu2kfz1","title":"Kuala Lumpur - CloudFlare","description":"","marker-size":"medium","marker-color":"#ffe900","marker-symbol":"circle"},"geometry":{"coordinates":[101.683959,3.148743],"type":"Point"},"id":"befbf939df601de95c6e9359b73b12dc"},{"type":"Feature","properties":{"id":"marker-icf5kdtd1","title":"Istanbul - KeyCDN","description":"","marker-size":"medium","marker-color":"#1087bf","marker-symbol":"circle"},"geometry":{"coordinates":[28.95996,41.145569],"type":"Point"},"id":"c0c6a46ca8a222b0a406c0ce13c76d3d"},{"type":"Feature","properties":{"id":"marker-icib50xrd","title":"Suizhou - QUANTIL","description":"","marker-size":"medium","marker-color":"#D61900","marker-symbol":"circle"},"geometry":{"coordinates":[113.302001,31.718822],"type":"Point"},"id":"c4618515d5273a872c0c3976b09246de"},{"type":"Feature","properties":{"id":"marker-icf5pn123","title":"Melbourne - CloudFlare","description":"","marker-size":"medium","marker-color":"ffe900","marker-symbol":"circle"},"geometry":{"coordinates":[144.27246,-37.926867],"type":"Point"},"id":"ca2945f3beb0d2f62aa2ce1ce2f66bd1"},{"type":"Feature","properties":{"id":"ci25nrszz2e8ebfrwnla5cmtn","title":"Seattle - MaxCDN","description":"Edge Location","marker-size":"medium","marker-color":"#F36F21","marker-symbol":"circle"},"geometry":{"coordinates":[-123.134765,47.338822],"type":"Point"},"id":"ci9brkn2k26ssiylv0xrnhi32"},{"type":"Feature","properties":{"id":"ci25nrt002e8fbfrwhjh69wpe","title":"Chicago - MaxCDN","description":"Edge Location","marker-size":"medium","marker-color":"#F36F21","marker-symbol":"circle"},"geometry":{"coordinates":[-87.637939,41.804078],"type":"Point"},"id":"ci9brkn2m26stiylv5ktgjnx3"},{"type":"Feature","properties":{"id":"ci25nrt012e8gbfrwolekiqqr","title":"San Francisco - MaxCDN","description":"Edge Location","marker-size":"medium","marker-color":"#F36F21","marker-symbol":"circle"},"geometry":{"coordinates":[-122.43164,37.788081],"type":"Point"},"id":"ci9brkn2n26suiylvwj28dhz5"},{"type":"Feature","properties":{"id":"ci25nrt022e8hbfrwo7g8y5bh","title":"Los Angeles - MaxCDN","description":"Edge Location","marker-size":"medium","marker-color":"#F36F21","marker-symbol":"circle"},"geometry":{"coordinates":[-118.157958,33.724339],"type":"Point"},"id":"ci9brkn2o26sviylv9f5arzm1"},{"type":"Feature","properties":{"id":"ci25nrt042e8ibfrwh5t94fiz","title":"Dallas - MaxCDN","description":"Edge Location","marker-size":"medium","marker-color":"#F36F21","marker-symbol":"circle"},"geometry":{"coordinates":[-96.855468,32.7688],"type":"Point"},"id":"ci9brkn2p26swiylvec6ns4pe"},{"type":"Feature","properties":{"id":"ci25nrt052e8jbfrw9k4oj0wv","title":"Miami - MaxCDN","description":"Edge Location","marker-size":"medium","marker-color":"#F36F21","marker-symbol":"circle"},"geometry":{"coordinates":[-80.15625,25.799891],"type":"Point"},"id":"ci9brkn2q26sxiylvdf9wdkyp"},{"type":"Feature","properties":{"id":"ci25nrt072e8kbfrwaffm93so","title":"Atlanta - MaxCDN","description":"Edge Location","marker-size":"medium","marker-color":"#F36F21","marker-symbol":"circle"},"geometry":{"coordinates":[-84.375,33.797408],"type":"Point"},"id":"ci9brkn2r26syiylvxqoomeoh"},{"type":"Feature","properties":{"id":"ci25nrt082e8lbfrwx1mbmcnl","title":"Ashburn - MaxCDN","description":"Edge Location","marker-size":"medium","marker-color":"#F36F21","marker-symbol":"circle"},"geometry":{"coordinates":[-77.519531,39.019183],"type":"Point"},"id":"ci9brkn2s26sziylvaetuji4o"},{"type":"Feature","properties":{"id":"ci25nrt0a2e8mbfrwze8y3809","title":"New York - MaxCDN","description":"Edge Location","marker-size":"medium","marker-color":"#F36F21","marker-symbol":"circle"},"geometry":{"coordinates":[-73.95996,40.676472],"type":"Point"},"id":"ci9brkn2t26t0iylvbcr62oy2"},{"type":"Feature","properties":{"id":"ci25nrt0b2e8nbfrwn8wn2ktj","title":"London - MaxCDN","description":"Edge Location","marker-size":"medium","marker-color":"#F36F21","marker-symbol":"circle"},"geometry":{"coordinates":[-0.131835,51.508742],"type":"Point"},"id":"ci9brkn2v26t1iylvgpnjcxj8"},{"type":"Feature","properties":{"id":"ci25nrt0c2e8obfrwv3o7kuxt","title":"Amsterdam - MaxCDN","description":"Edge Location","marker-size":"medium","marker-color":"#F36F21","marker-symbol":"circle"},"geometry":{"coordinates":[4.921875,52.200873],"type":"Point"},"id":"ci9brkn2w26t2iylvlo8xlfiq"},{"type":"Feature","properties":{"id":"ci25nrt0d2e8pbfrwdo02k76u","title":"Frankfurt - MaxCDN","description":"Edge Location","marker-size":"medium","marker-color":"#F36F21","marker-symbol":"circle"},"geometry":{"coordinates":[8.767089,49.809631],"type":"Point"},"id":"ci9brkn2x26t3iylvnmajmlni"},{"type":"Feature","properties":{"id":"ci25nrt0e2e8qbfrww0gal5m4","title":"Seatle - CloudFlare","description":"Edge Location","marker-size":"medium","marker-color":"#FFE900","marker-symbol":"circle"},"geometry":{"coordinates":[-122.316284,47.603385],"type":"Point"},"id":"ci9brkn2y26t4iylvehkgpw37"},{"type":"Feature","properties":{"id":"ci25nrt0f2e8rbfrw4559ue4w","title":"San Jose - CloudFlare","description":"Edge Location","marker-size":"medium","marker-color":"#FFE900","marker-symbol":"circle"},"geometry":{"coordinates":[-122.091064,38.004819],"type":"Point"},"id":"ci9brkn2z26t5iylvneieakoe"},{"type":"Feature","properties":{"id":"ci25nrt0h2e8sbfrwp6tkkqak","title":"Los Angeles - CloudFlare","description":"Edge Location","marker-size":"medium","marker-color":"#FFE900","marker-symbol":"circle"},"geometry":{"coordinates":[-117.960205,33.979808],"type":"Point"},"id":"ci9brkn3026t6iylvgce1p9x8"},{"type":"Feature","properties":{"id":"ci25nrt0i2e8tbfrwz1zljyx7","title":"Dallas - CloudFlare","description":"Edge Location","marker-size":"medium","marker-color":"#FFE900","marker-symbol":"circle"},"geometry":{"coordinates":[-96.591796,32.907262],"type":"Point"},"id":"ci9brkn3126t7iylvsssu2cbo"},{"type":"Feature","properties":{"id":"ci25nrt0j2e8ubfrwfq4e10pm","title":"Miami - CloudFlare","description":"Edge Location","marker-size":"medium","marker-color":"#FFE900","marker-symbol":"circle"},"geometry":{"coordinates":[-80.90332,26.086388],"type":"Point"},"id":"ci9brkn3226t8iylvpjvd8qtj"},{"type":"Feature","properties":{"id":"ci25nrt0k2e8vbfrwjrpt3l01","title":"Atlanta - CloudFlare","description":"Edge Location","marker-size":"medium","marker-color":"#FFE900","marker-symbol":"circle"},"geometry":{"coordinates":[-85.100097,33.961586],"type":"Point"},"id":"ci9brkn3326t9iylv10dx73xj"},{"type":"Feature","properties":{"id":"ci25nrt0l2e8wbfrwn4egx5cl","title":"Washigton - CloudFlare","description":"Edge Location","marker-size":"medium","marker-color":"#FFE900","marker-symbol":"circle"},"geometry":{"coordinates":[-77.01416,38.925229],"type":"Point"},"id":"ci9brkn3426taiylvn1e22u9v"},{"type":"Feature","properties":{"id":"ci25nrt0m2e8xbfrwcv89maaj","title":"Chicago - CloudFlare","description":"Edge Location","marker-size":"medium","marker-color":"#FFE900","marker-symbol":"circle"},"geometry":{"coordinates":[-88.198242,41.754922],"type":"Point"},"id":"ci9brkn3526tbiylvmm09pao1"},{"type":"Feature","properties":{"id":"ci25nrt3y2e8ybfrwks2z6nl7","title":"Toronto - CloudFlare","description":"Edge Location","marker-size":"medium","marker-color":"#FFE900","marker-symbol":"circle"},"geometry":{"coordinates":[-79.409179,43.659924],"type":"Point"},"id":"ci9brkn3726tciylv0x6gfnsd"},{"type":"Feature","properties":{"id":"ci25nrt4s2e8zbfrw4wayhjn1","title":"Newark - CloudFlare","description":"Edge Location","marker-size":"medium","marker-color":"#FFE900","marker-symbol":"circle"},"geometry":{"coordinates":[-74.186553,40.735811],"type":"Point"},"id":"ci9brkn3926tdiylv9aw1jl76"},{"type":"Feature","properties":{"id":"ci25nrt542e90bfrw55c15ogr","title":"Valpraiso - CloudFlare","description":"Edge Location","marker-size":"medium","marker-color":"#FFE900","marker-symbol":"circle"},"geometry":{"coordinates":[-71.592407,-33.045507],"type":"Point"},"id":"ci9brkn3a26teiylv0g3hhj5e"},{"type":"Feature","properties":{"id":"ci25nrt562e91bfrwb7zwyf82","title":"London - CloudFlare","description":"Edge Location","marker-size":"medium","marker-color":"#FFE900","marker-symbol":"circle"},"geometry":{"coordinates":[-0.725097,51.658926],"type":"Point"},"id":"ci9brkn3b26tfiylv7h1abpgk"},{"type":"Feature","properties":{"id":"ci25nrt5a2e92bfrwcg2wmqkz","title":"Amsterdam - CloudFlare","description":"Edge Location","marker-size":"medium","marker-color":"#FFE900","marker-symbol":"circle"},"geometry":{"coordinates":[4.702148,52.372245],"type":"Point"},"id":"ci9brkn3c26tgiylvolyircrk"},{"type":"Feature","properties":{"id":"ci25nrt5b2e93bfrw6o81wrg5","title":"Frankfurt - CloudFlare","description":"Edge Location","marker-size":"medium","marker-color":"#FFE900","marker-symbol":"circle"},"geometry":{"coordinates":[8.613281,50.064191],"type":"Point"},"id":"ci9brkn3e26thiylvyn6s009i"},{"type":"Feature","properties":{"id":"ci25nrt5f2e94bfrw2sclq6dp","title":"Paris - CloudFlare","description":"Edge Location","marker-size":"medium","marker-color":"#FFE900","marker-symbol":"circle"},"geometry":{"coordinates":[2.340087,48.864714],"type":"Point"},"id":"ci9brkn3f26tiiylvc2nry6zj"},{"type":"Feature","properties":{"id":"ci25nrt5g2e95bfrwiuufzdz3","title":"Vienna - CloudFlare","description":"Edge Location","marker-size":"medium","marker-color":"#FFE900","marker-symbol":"circle"},"geometry":{"coordinates":[16.369627,48.217352],"type":"Point"},"id":"ci9brkn3g26tjiylvxyk0omqm"},{"type":"Feature","properties":{"id":"ci25nrt5i2e96bfrwqnyotb66","title":"Prague - CloudFlare","description":"Edge Location","marker-size":"medium","marker-color":"#FFE900","marker-symbol":"circle"},"geometry":{"coordinates":[14.447021,50.092393],"type":"Point"},"id":"ci9brkn3h26tkiylv5kppu1rr"},{"type":"Feature","properties":{"id":"ci25nrt5n2e97bfrwirr04yxi","title":"Warsaw - CloudFlare","description":"Edge Location","marker-size":"medium","marker-color":"#FFE900","marker-symbol":"circle"},"geometry":{"coordinates":[21.005859,52.254708],"type":"Point"},"id":"ci9brkn3j26tliylvog52icbn"},{"type":"Feature","properties":{"id":"ci25nrt5s2e98bfrwlf9g6ida","title":"Stockholm","description":"Edge Location","marker-size":"medium","marker-color":"#FFE900","marker-symbol":"circle"},"geometry":{"coordinates":[18.083496,59.344394],"type":"Point"},"id":"ci9brkn3k26tmiylvpm90nu4q"},{"type":"Feature","properties":{"id":"ci25nrt5t2e99bfrwqnxc16ng","title":"Singapore - CloudFlare","description":"Edge Location","marker-size":"medium","marker-color":"#FFE900","marker-symbol":"circle"},"geometry":{"coordinates":[103.809814,1.340209],"type":"Point"},"id":"ci9brkn3l26tniylvcpxjw3tx"},{"type":"Feature","properties":{"id":"ci25nrt5w2e9abfrwg0632zju","title":"Sydney - CloudFlare","description":"Edge Location","marker-size":"medium","marker-color":"#FFE900","marker-symbol":"circle"},"geometry":{"coordinates":[151.171875,-33.760882],"type":"Point"},"id":"ci9brkn3m26toiylv4zzdjnae"},{"type":"Feature","properties":{"id":"ci25nrt5y2e9bbfrwfrf638ru","title":"Hong Kong - CloudFlare","description":"Edge Location","marker-size":"medium","marker-color":"#FFE900","marker-symbol":"circle"},"geometry":{"coordinates":[114.180908,22.289096],"type":"Point"},"id":"ci9brkn3n26tpiylvbpmjiqmw"},{"type":"Feature","properties":{"id":"ci25nrt5z2e9cbfrwlmzn1qfo","title":"Seoul - CloudFlare","description":"Edge Location","marker-size":"medium","marker-color":"#FFE900","marker-symbol":"circle"},"geometry":{"coordinates":[127.045898,37.544577],"type":"Point"},"id":"ci9brkn3q26tqiylvwdyjpkbi"},{"type":"Feature","properties":{"id":"ci25nrt632e9dbfrwiattrh96","title":"Tokyo - CloudFlare","description":"Edge Location","marker-size":"medium","marker-color":"#FFE900","marker-symbol":"circle"},"geometry":{"coordinates":[139.746093,35.710837],"type":"Point"},"id":"ci9brkn3r26triylvjfubxblj"},{"type":"Feature","properties":{"id":"ci25nrt8s2e9jbfrwmsqioy9t","title":"Madrid - CloudFlare","description":"Edge Location","marker-size":"medium","marker-color":"#ffe900","marker-symbol":"circle"},"geometry":{"coordinates":[-3.702392,40.42186],"type":"Point"},"id":"ci9brkn3t26ttiylvwrmquedv"},{"type":"Feature","properties":{"id":"ci25nrt932e9kbfrwutbhxeir","title":"Hong Kong - MaxCDN","description":"Edge Location","marker-size":"medium","marker-color":"#f36f21","marker-symbol":"circle"},"geometry":{"coordinates":[113.818359,22.105998],"type":"Point"},"id":"ci9brkn3v26tuiylv23dz7eqe"},{"type":"Feature","properties":{"id":"ci25nrt962e9lbfrwngtjhiab","title":"Syndey - MaxCDN","description":"Edge Location","marker-size":"medium","marker-color":"#f36f21","marker-symbol":"circle"},"geometry":{"coordinates":[150.644531,-35.2815],"type":"Point"},"id":"ci9brkn3x26tviylvdgv3lbq2"},{"type":"Feature","properties":{"id":"ci25nrt9b2e9mbfrwgs5bycta","title":"Tokyo - MaxCDN","description":"Edge Location","marker-size":"medium","marker-color":"#f36f21","marker-symbol":"circle"},"geometry":{"coordinates":[138.339843,34.524661],"type":"Point"},"id":"ci9brkn3y26twiylvooo6to19"},{"type":"Feature","properties":{"id":"ci25nrt9d2e9nbfrw3d4b33vj","title":"Sao Paulo - CloudFlare","description":"Edge Location","marker-size":"medium","marker-color":"#ffe900","marker-symbol":"circle"},"geometry":{"coordinates":[-46.933593,-23.563987],"type":"Point"},"id":"ci9brkn4026txiylvy84e91t1"},{"type":"Feature","properties":{"id":"ci25nrt9g2e9obfrwueo2cxo5","title":"Medellin - CloudFlare","description":"Edge Location","marker-size":"medium","marker-color":"#ffe900","marker-symbol":"circle"},"geometry":{"coordinates":[-75.585937,6.315298],"type":"Point"},"id":"ci9brkn4226tyiylv7wwnli9n"},{"type":"Feature","properties":{"id":"ci25nrt9i2e9pbfrw8p73jyxe","title":"Milan - CloudFlare","description":"Edge Location","marker-size":"medium","marker-color":"#ffe900","marker-symbol":"circle"},"geometry":{"coordinates":[9.27246,45.413876],"type":"Point"},"id":"ci9brkn4426tziylvnka7ocj3"},{"type":"Feature","properties":{"id":"ci2itpdox01njbkq6imopk1df","title":"Antananarivo - Telma","description":"Sponsored POP location by telma.mg","marker-size":"medium","marker-color":"#006633","marker-symbol":"t"},"geometry":{"coordinates":[47.526683,-18.90856],"type":"Point"},"id":"ci9brkn4526u0iylvpohvg5vo"},{"type":"Feature","properties":{"id":"ci3a7n970006cempn5ja9svji","title":"Lima - CloudFlare","description":"Edge Location","marker-size":"medium","marker-color":"#ffe900","marker-symbol":"circle"},"geometry":{"coordinates":[-77.036132,-12.082295],"type":"Point"},"id":"ci9brkn4726u1iylvs6yfr64z"},{"type":"Feature","properties":{"id":"ci3h4x48z01csgfnow4wyfbhc","title":"Johannesburg - CloudFlare","description":"Edge Location","marker-size":"medium","marker-color":"#ffe900","marker-symbol":"circle"},"geometry":{"coordinates":[28.081054,-26.194876],"type":"Point"},"id":"ci9brkn4826u2iylv0y9a5o4n"},{"type":"Feature","properties":{"id":"ci3jxm3v400daj8ppj97ejn0h","title":"Singapore - MaxCDN","description":"Edge Location","marker-size":"medium","marker-color":"#f36f21","marker-symbol":"circle"},"geometry":{"coordinates":[104.018554,1.296276],"type":"Point"},"id":"ci9brkn4a26u3iylv9diczqhs"},{"type":"Feature","properties":{"id":"ci4wqeeyn003mk8s0tlqncu6j","title":"Moscow - KeyCDN","description":"Edge Location","marker-size":"medium","marker-color":"#3686BE","marker-symbol":"circle"},"geometry":{"coordinates":[37.617187,55.776573],"type":"Point"},"id":"ci9brkn4b26u4iylvzz0dvzkw"},{"type":"Feature","properties":{"id":"ci4wqeeyp003nk8s0984j2gzv","title":"Atlanta - KeyCDN","description":"","marker-size":"medium","marker-color":"#3686BE","marker-symbol":"circle"},"geometry":{"coordinates":[-83.80371,33.979808],"type":"Point"},"id":"ci9brkn4c26u5iylv8d7y0hxy"},{"type":"Feature","properties":{"id":"ci4wqeeyq003ok8s0s1d7y81b","title":"Chicago - KeyCDN","description":"","marker-size":"medium","marker-color":"#3686BE","marker-symbol":"circle"},"geometry":{"coordinates":[-86.835937,41.804078],"type":"Point"},"id":"ci9brkn4d26u6iylvvzcir1kc"},{"type":"Feature","properties":{"id":"ci4wqeeyr003pk8s09gp4191l","title":"Dallas - KeyCDN","description":"","marker-size":"medium","marker-color":"#3686BE","marker-symbol":"circle"},"geometry":{"coordinates":[-97.646484,32.971803],"type":"Point"},"id":"ci9brkn4e26u7iylvxcgthh9w"},{"type":"Feature","properties":{"id":"ci4wqeeys003qk8s0vvmvyrbm","title":"Miami - KeyCDN","description":"","marker-size":"medium","marker-color":"#3686BE","marker-symbol":"circle"},"geometry":{"coordinates":[-81.782226,25.859223],"type":"Point"},"id":"ci9brkn4f26u8iylvz2igi060"},{"type":"Feature","properties":{"id":"ci4wqeeyt003rk8s0spey401j","title":"Los Angeles - KeyCDN","description":"","marker-size":"medium","marker-color":"#3686BE","marker-symbol":"circle"},"geometry":{"coordinates":[-117.46582,33.998027],"type":"Point"},"id":"ci9brkn4h26u9iylvajud9byz"},{"type":"Feature","properties":{"id":"ci4wqeeyu003sk8s0x52hijb4","title":"San Jose - KeyCDN","description":"","marker-size":"medium","marker-color":"#3686BE","marker-symbol":"circle"},"geometry":{"coordinates":[-121.827392,37.282794],"type":"Point"},"id":"ci9brkn4j26uaiylvsle7vc9w"},{"type":"Feature","properties":{"id":"ci4wqeeyv003tk8s0wfhkrckg","title":"Seattle - KeyCDN","description":"","marker-size":"medium","marker-color":"#3686BE","marker-symbol":"circle"},"geometry":{"coordinates":[-121.728515,47.524619],"type":"Point"},"id":"ci9brkn4k26ubiylvxh5g86ro"},{"type":"Feature","properties":{"id":"ci4wqeeyw003uk8s05xrn92qa","title":"Washignton - KeyCDN","description":"","marker-size":"medium","marker-color":"#3686BE","marker-symbol":"circle"},"geometry":{"coordinates":[-76.728515,38.788345],"type":"Point"},"id":"ci9brkn4m26uciylvpkyfmg26"},{"type":"Feature","properties":{"id":"ci4wqeeyx003vk8s0yrzrdnxp","title":"Amsterdam - KeyCDN","description":"","marker-size":"medium","marker-color":"#3686BE","marker-symbol":"circle"},"geometry":{"coordinates":[5.207519,52.368891],"type":"Point"},"id":"ci9brkn4o26udiylvyaulo8fm"},{"type":"Feature","properties":{"id":"ci4wqeeyy003wk8s0jxf8rzqd","title":"Frankfurt - KeyCDN","description":"","marker-size":"medium","marker-color":"#3686BE","marker-symbol":"circle"},"geometry":{"coordinates":[8.140869,49.979487],"type":"Point"},"id":"ci9brkn4p26ueiylvlb78nq5l"},{"type":"Feature","properties":{"id":"ci4wqeeyz003xk8s0i1fm8098","title":"London - KeyCDN","description":"","marker-size":"medium","marker-color":"#3686BE","marker-symbol":"circle"},"geometry":{"coordinates":[0.461425,51.631657],"type":"Point"},"id":"ci9brkn4r26ufiylv7fujaml5"},{"type":"Feature","properties":{"id":"ci4wqeez0003yk8s04xa4fszb","title":"Milan - KeyCDN","description":"","marker-size":"medium","marker-color":"#3686BE","marker-symbol":"circle"},"geometry":{"coordinates":[9.019775,45.452424],"type":"Point"},"id":"ci9brkn4t26ugiylvslnnfols"},{"type":"Feature","properties":{"id":"ci4wqeez1003zk8s03w2iwzqn","title":"Paris - France","description":"","marker-size":"medium","marker-color":"#3686BE","marker-symbol":"circle"},"geometry":{"coordinates":[2.90039,48.763431],"type":"Point"},"id":"ci9brkn4v26uhiylvhic1em0l"},{"type":"Feature","properties":{"id":"ci4wqeez20040k8s0seuwwhpz","title":"Stockholm - KeyCDN","description":"","marker-size":"medium","marker-color":"#3686BE","marker-symbol":"circle"},"geometry":{"coordinates":[17.314453,59.467407],"type":"Point"},"id":"ci9brkn4w26uiiylv92209vmh"},{"type":"Feature","properties":{"id":"ci4wqeez30041k8s0ccwumrb9","title":"Valencia - KeyCDN","description":"","marker-size":"medium","marker-color":"#3686BE","marker-symbol":"circle"},"geometry":{"coordinates":[-0.439453,39.470125],"type":"Point"},"id":"ci9brkn4y26ujiylvf6cnh3gt"},{"type":"Feature","properties":{"id":"ci4wqeez40042k8s0ul7nnv13","title":"Hong Kong - KeyCDN","description":"","marker-size":"medium","marker-color":"#3686BE","marker-symbol":"circle"},"geometry":{"coordinates":[114.400634,22.471954],"type":"Point"},"id":"ci9brkn5026ukiylvimgr1fma"},{"type":"Feature","properties":{"id":"ci4wqeez50043k8s0iqt1fls5","title":"Melbourne - KeyCDN","description":"","marker-size":"medium","marker-color":"#3686BE","marker-symbol":"circle"},"geometry":{"coordinates":[145.019531,-37.753344],"type":"Point"},"id":"ci9brkn5126uliylvnydcu1bh"},{"type":"Feature","properties":{"id":"ci4wqeez60044k8s0l0l6l267","title":"Singapore - KeyCDN","description":"","marker-size":"medium","marker-color":"#3686BE","marker-symbol":"circle"},"geometry":{"coordinates":[103.502197,1.395125],"type":"Point"},"id":"ci9brkn5326umiylvm8fbx309"},{"type":"Feature","properties":{"id":"ci4wqeez70045k8s0039utjg4","title":"Tokyo - KeyCDN","description":"","marker-size":"medium","marker-color":"#3686BE","marker-symbol":"circle"},"geometry":{"coordinates":[140.449218,35.137879],"type":"Point"},"id":"ci9brkn5426uniylv14aisvmq"},{"type":"Feature","properties":{"id":"ci4wqeez80046k8s0ik0yws46","title":"Tel Aviv - MaxCDN","description":"","marker-size":"medium","marker-color":"#f36f21","marker-symbol":"circle"},"geometry":{"coordinates":[34.782714,32.119801],"type":"Point"},"id":"ci9brkn5626uoiylvdktpw9b3"},{"type":"Feature","properties":{"id":"marker-i7z7480s0","title":"Dusseldorf - CloudFlare","description":"Edge Location","marker-size":"medium","marker-color":"#ffe900","marker-symbol":"circle"},"geometry":{"coordinates":[6.745605,51.248163],"type":"Point"},"id":"ci9brkn5726upiylv097e4wh5"},{"type":"Feature","properties":{"id":"marker-i7z77mhj1","title":"Buenos Aires - CloudFlare","description":"Edge Location","marker-size":"medium","marker-color":"#ffe900","marker-symbol":"circle"},"geometry":{"coordinates":[-58.40332,-34.560859],"type":"Point"},"id":"ci9brkn5926uqiylv84zo97fg"},{"type":"Feature","properties":{"id":"marker-ia8ffcdq0","title":"Paris - MaxCDN","description":"Edge Location","marker-size":"medium","marker-color":"f36f21","marker-symbol":"circle"},"geometry":{"coordinates":[2.702636,48.951366],"type":"Point"},"id":"cia8fjjpu01fwkdm7sh559i94"},{"type":"Feature","properties":{"id":"marker-icib45mac","title":"Weinan - QUANTIL","description":"","marker-size":"medium","marker-color":"#D61900","marker-symbol":"circle"},"geometry":{"coordinates":[109.451293,34.529187],"type":"Point"},"id":"d2958921705327ce2359daaa58ba4d1a"},{"type":"Feature","properties":{"id":"marker-iciawzv55","title":"Kunming - QUANTIL","description":"","marker-size":"medium","marker-color":"#D61900","marker-symbol":"circle"},"geometry":{"coordinates":[102.722167,25.060721],"type":"Point"},"id":"d4d3caf01fa67cdb90ed387a5de4ce67"},{"type":"Feature","properties":{"id":"marker-iciaxmqh7","title":"Beijing- QUANTIL","description":"","marker-size":"medium","marker-color":"#D61900","marker-symbol":"circle"},"geometry":{"coordinates":[116.400146,39.907629],"type":"Point"},"id":"de42112a11fca6633a02861ef4827b5e"},{"type":"Feature","properties":{"id":"marker-icib5avke","title":"Xinyang - QUANTIL","description":"","marker-size":"medium","marker-color":"#D61900","marker-symbol":"circle"},"geometry":{"coordinates":[114.066839,32.127032],"type":"Point"},"id":"ece6688f5a7f0e655bc8065ff7e1face"},{"type":"Feature","properties":{"id":"marker-iefu16600","title":"Berlin - CloudFlare","description":"","marker-size":"medium","marker-color":"#ffe900","marker-symbol":"circle"},"geometry":{"coordinates":[13.348388,52.51622],"type":"Point"},"id":"eeca3c4e8a730d25f71f61835ceb862d"},{"type":"Feature","properties":{"id":"marker-icf5qzui5","title":"Marseille - CloudFlare","description":"","marker-size":"medium","marker-color":"ffe900","marker-symbol":"circle"},"geometry":{"coordinates":[5.361328,43.325177],"type":"Point"},"id":"faa32755dee2f4457d99bb7af820f8cc"},{"type":"Feature","properties":{"id":"marker-iciav90y3","title":"Chongqing - QUANTIL","description":"","marker-size":"medium","marker-color":"#D61900","marker-symbol":"circle"},"geometry":{"coordinates":[106.534423,29.53045],"type":"Point"},"id":"fccc0aed85110c7e73a65c324878cf7f"}],"id":"jimaek.map-6gmedxyr"}